{"type": "FeatureCollection", "features": [{"type": "Feature", "geometry": {"type": "Point", "coordinates": [121.468031, 31.219683]}, "properties": {"_id": "160128617", "xian_dai_qu_hua": "113343986", "di_zhi": "南昌路136弄11号", "lei_bie": null, "title": "徐志摩2", "zheng_qu": "黄浦区"}}, {"type": "Feature", "geometry": {"coordinates": [121.400554, 31.199626], "type": "Point"}, "properties": {"_id": "159907843", "xian_dai_qu_hua": "113344061", "di_zhi": "虹桥路1472号", "lei_bie": null, "title": "孔祥熙4", "zheng_qu": "长宁区"}}, {"type": "Feature", "geometry": {"coordinates": [121.506721, 31.257419], "type": "Point"}, "properties": {"_id": "159907842", "xian_dai_qu_hua": "123031810", "di_zhi": "唐山路685弄42号", "lei_bie": null, "title": "夏衍1", "zheng_qu": "虹口区"}}, {"type": "Feature", "geometry": {"coordinates": [121.48246, 31.264468], "type": "Point"}, "properties": {"_id": "159907841", "xian_dai_qu_hua": "123031810", "di_zhi": "四川北路2093号", "lei_bie": null, "title": "鲁迅2", "zheng_qu": "虹口区"}}, {"type": "Feature", "geometry": {"coordinates": [121.482316, 31.263978], "type": "Point"}, "properties": {"_id": "159907840", "xian_dai_qu_hua": "123031810", "di_zhi": "四川北路2023弄35号", "lei_bie": null, "title": "汤恩伯", "zheng_qu": "虹口区"}}, {"type": "Feature", "geometry": {"coordinates": [121.484508, 31.261935], "type": "Point"}, "properties": {"_id": "159907839", "xian_dai_qu_hua": "123031810", "di_zhi": "四川北路1906弄52号", "lei_bie": null, "title": "胡蝶", "zheng_qu": "虹口区"}}, {"type": "Feature", "geometry": {"coordinates": [121.484145, 31.250319], "type": "Point"}, "properties": {"_id": "159907838", "xian_dai_qu_hua": "123031810", "di_zhi": "四川北路989弄", "lei_bie": null, "title": "戴望舒1", "zheng_qu": "虹口区"}}, {"type": "Feature", "geometry": {"coordinates": [121.485346, 31.265929], "type": "Point"}, "properties": {"_id": "159907836", "xian_dai_qu_hua": "123031810", "di_zhi": "山阴路133弄12号", "lei_bie": null, "title": "瞿秋白2", "zheng_qu": "虹口区"}}, {"type": "Feature", "geometry": {"coordinates": [121.484246, 31.266096], "type": "Point"}, "properties": {"_id": "159907835", "xian_dai_qu_hua": "123031810", "di_zhi": "山阴路132弄9号", "lei_bie": null, "title": "鲁迅3", "zheng_qu": "虹口区"}}, {"type": "Feature", "geometry": {"coordinates": [121.484488, 31.266088], "type": "Point"}, "properties": {"_id": "159907834", "xian_dai_qu_hua": "123031810", "di_zhi": "山阴路132弄6号", "lei_bie": null, "title": "茅盾2", "zheng_qu": "虹口区"}}, {"type": "Feature", "geometry": {"coordinates": [121.485718, 31.264135], "type": "Point"}, "properties": {"_id": "159907833", "xian_dai_qu_hua": "123031810", "di_zhi": "溧阳路1335弄5号", "lei_bie": null, "title": "曹聚仁", "zheng_qu": "虹口区"}}, {"type": "Feature", "geometry": {"coordinates": [121.486953, 31.263333], "type": "Point"}, "properties": {"_id": "159907832", "xian_dai_qu_hua": "123031810", "di_zhi": "溧阳路1269号", "lei_bie": null, "title": "郭沫若2", "zheng_qu": "虹口区"}}, {"type": "Feature", "geometry": {"coordinates": [121.485913, 31.24899], "type": "Point"}, "properties": {"_id": "159907831", "xian_dai_qu_hua": "123031810", "di_zhi": "昆山花园路7号", "lei_bie": null, "title": "丁玲3", "zheng_qu": "虹口区"}}, {"type": "Feature", "geometry": {"coordinates": [121.481384, 31.268017], "type": "Point"}, "properties": {"_id": "159907830", "xian_dai_qu_hua": "123031810", "di_zhi": "黄渡路107弄14号", "lei_bie": null, "title": "李白", "zheng_qu": "虹口区"}}, {"type": "Feature", "geometry": {"coordinates": [121.481048, 31.262654], "type": "Point"}, "properties": {"_id": "159907829", "xian_dai_qu_hua": "123031810", "di_zhi": "横浜路35弄23号", "lei_bie": null, "title": "鲁迅1", "zheng_qu": "虹口区"}}, {"type": "Feature", "geometry": {"coordinates": [121.480755, 31.262496], "type": "Point"}, "properties": {"_id": "159907828", "xian_dai_qu_hua": "123031810", "di_zhi": "横浜路35弄11号甲", "lei_bie": null, "title": "茅盾1", "zheng_qu": "虹口区"}}, {"type": "Feature", "geometry": {"coordinates": [121.480912, 31.262438], "type": "Point"}, "properties": {"_id": "159907827", "xian_dai_qu_hua": "123031810", "di_zhi": "横浜路35弄11号", "lei_bie": null, "title": "叶圣陶1", "zheng_qu": "虹口区"}}, {"type": "Feature", "geometry": {"coordinates": [121.487426, 31.258551], "type": "Point"}, "properties": {"_id": "159907826", "xian_dai_qu_hua": "123031810", "di_zhi": "海伦路504号", "lei_bie": null, "title": "沈尹默2", "zheng_qu": "虹口区"}}, {"type": "Feature", "geometry": {"coordinates": [121.505982, 31.251654], "type": "Point"}, "properties": {"_id": "159907825", "xian_dai_qu_hua": "123031810", "di_zhi": "公平路185弄86号", "lei_bie": null, "title": "聂耳", "zheng_qu": "虹口区"}}, {"type": "Feature", "geometry": {"coordinates": [121.481863, 31.264528], "type": "Point"}, "properties": {"_id": "159907824", "xian_dai_qu_hua": "123031810", "di_zhi": "多伦路250号", "lei_bie": null, "title": "孔祥熙2", "zheng_qu": "虹口区"}}, {"type": "Feature", "geometry": {"coordinates": [121.481867, 31.263992], "type": "Point"}, "properties": {"_id": "159907823", "xian_dai_qu_hua": "123031810", "di_zhi": "多伦路210号", "lei_bie": null, "title": "白崇禧", "zheng_qu": "虹口区"}}, {"type": "Feature", "geometry": {"coordinates": [121.480599, 31.263454], "type": "Point"}, "properties": {"_id": "159907822", "xian_dai_qu_hua": "123031810", "di_zhi": "多伦路201弄89号", "lei_bie": null, "title": "郭沫若1", "zheng_qu": "虹口区"}}, {"type": "Feature", "geometry": {"coordinates": [121.481662, 31.263475], "type": "Point"}, "properties": {"_id": "159907821", "xian_dai_qu_hua": "123031810", "di_zhi": "多伦路189号", "lei_bie": null, "title": "赵世炎2", "zheng_qu": "虹口区"}}, {"type": "Feature", "geometry": {"coordinates": [121.481654, 31.262882], "type": "Point"}, "properties": {"_id": "159907820", "xian_dai_qu_hua": "123031810", "di_zhi": "多伦路145号", "lei_bie": null, "title": "赵世炎1", "zheng_qu": "虹口区"}}, {"type": "Feature", "geometry": {"coordinates": [121.437844, 31.220667], "type": "Point"}, "properties": {"_id": "159907819", "xian_dai_qu_hua": "113343962", "di_zhi": "愚园路579弄44号", "lei_bie": null, "title": "刘晓", "zheng_qu": "静安区"}}, {"type": "Feature", "geometry": {"coordinates": [121.44662, 31.224744], "type": "Point"}, "properties": {"_id": "159907818", "xian_dai_qu_hua": "113343962", "di_zhi": "愚园路81号", "lei_bie": null, "title": "刘长胜", "zheng_qu": "静安区"}}, {"type": "Feature", "geometry": {"coordinates": [121.453048, 31.222973], "type": "Point"}, "properties": {"_id": "159907817", "xian_dai_qu_hua": "113343962", "di_zhi": "延安中路913弄923号", "lei_bie": null, "title": "徐志摩1", "zheng_qu": "静安区"}}, {"type": "Feature", "geometry": {"coordinates": [121.443512, 31.221204], "type": "Point"}, "properties": {"_id": "159907816", "xian_dai_qu_hua": "113343962", "di_zhi": "延安西路64号", "lei_bie": null, "title": "嘉道理", "zheng_qu": "静安区"}}, {"type": "Feature", "geometry": {"coordinates": [121.451301, 31.231758], "type": "Point"}, "properties": {"_id": "159907815", "xian_dai_qu_hua": "113343962", "di_zhi": "新闸路1321号", "lei_bie": null, "title": "刘晦之", "zheng_qu": "静安区"}}, {"type": "Feature", "geometry": {"coordinates": [121.454325, 31.233535], "type": "Point"}, "properties": {"_id": "159907814", "xian_dai_qu_hua": "113343962", "di_zhi": "新闸路1124弄9号", "lei_bie": null, "title": "阮玲玉", "zheng_qu": "静安区"}}, {"type": "Feature", "geometry": {"coordinates": [121.438658, 31.22531], "type": "Point"}, "properties": {"_id": "159907812", "xian_dai_qu_hua": "113343962", "di_zhi": "万航渡路320弄", "lei_bie": null, "title": "蔡元培1", "zheng_qu": "静安区"}}, {"type": "Feature", "geometry": {"coordinates": [121.441185, 31.225889], "type": "Point"}, "properties": {"_id": "159907811", "xian_dai_qu_hua": "113343962", "di_zhi": "万航渡路223弄19号", "lei_bie": null, "title": "李天马", "zheng_qu": "静安区"}}, {"type": "Feature", "geometry": {"coordinates": [121.449581, 31.226553], "type": "Point"}, "properties": {"_id": "159907810", "xian_dai_qu_hua": "113343962", "di_zhi": "铜仁路257号", "lei_bie": null, "title": "史量才", "zheng_qu": "静安区"}}, {"type": "Feature", "geometry": {"coordinates": [121.45638, 31.222919], "type": "Point"}, "properties": {"_id": "159907809", "xian_dai_qu_hua": "113343962", "di_zhi": "陕西南路30号", "lei_bie": null, "title": "马勒", "zheng_qu": "静安区"}}, {"type": "Feature", "geometry": {"coordinates": [121.453419, 31.228986], "type": "Point"}, "properties": {"_id": "159907808", "xian_dai_qu_hua": "113343962", "di_zhi": "陕西北路369号", "lei_bie": null, "title": "宋家花园", "zheng_qu": "静安区"}}, {"type": "Feature", "geometry": {"coordinates": [121.455846, 31.226696], "type": "Point"}, "properties": {"_id": "159907807", "xian_dai_qu_hua": "113343962", "di_zhi": "陕西北路186号", "lei_bie": null, "title": "荣宗敬", "zheng_qu": "静安区"}}, {"type": "Feature", "geometry": {"coordinates": [121.478748, 31.247901], "type": "Point"}, "properties": {"_id": "159907806", "xian_dai_qu_hua": "113343962", "di_zhi": "山西北路457弄12号", "lei_bie": null, "title": "吴昌硕", "zheng_qu": "静安区"}}, {"type": "Feature", "geometry": {"coordinates": [121.457029, 31.22735], "type": "Point"}, "properties": {"_id": "159907805", "xian_dai_qu_hua": "113343962", "di_zhi": "南京西路1081弄59A", "lei_bie": null, "title": "夏衍2", "zheng_qu": "静安区"}}, {"type": "Feature", "geometry": {"coordinates": [121.458121, 31.227812], "type": "Point"}, "properties": {"_id": "159907804", "xian_dai_qu_hua": "113343962", "di_zhi": "南京西路1025弄52号", "lei_bie": null, "title": "蔡元培2", "zheng_qu": "静安区"}}, {"type": "Feature", "geometry": {"coordinates": [121.460362, 31.226408], "type": "Point"}, "properties": {"_id": "159907803", "xian_dai_qu_hua": "113343962", "di_zhi": "茂名北路120弄7号", "lei_bie": null, "title": "毛泽东2", "zheng_qu": "静安区"}}, {"type": "Feature", "geometry": {"coordinates": [121.456096, 31.237229], "type": "Point"}, "properties": {"_id": "159907802", "xian_dai_qu_hua": "113343962", "di_zhi": "康定东路85号", "lei_bie": null, "title": "张爱玲1", "zheng_qu": "静安区"}}, {"type": "Feature", "geometry": {"coordinates": [121.447031, 31.219037], "type": "Point"}, "properties": {"_id": "159907801", "xian_dai_qu_hua": "113343962", "di_zhi": "华山路303弄16号", "lei_bie": null, "title": "蔡元培3", "zheng_qu": "静安区"}}, {"type": "Feature", "geometry": {"coordinates": [121.466646, 31.224142], "type": "Point"}, "properties": {"_id": "159907800", "xian_dai_qu_hua": "113343962", "di_zhi": "成都北路7弄30号", "lei_bie": null, "title": "李达", "zheng_qu": "静安区"}}, {"type": "Feature", "geometry": {"coordinates": [121.452896, 31.21835], "type": "Point"}, "properties": {"_id": "159907799", "xian_dai_qu_hua": "113343962", "di_zhi": "长乐路682弄", "lei_bie": null, "title": "柯灵1", "zheng_qu": "静安区"}}, {"type": "Feature", "geometry": {"coordinates": [121.447592, 31.22466], "type": "Point"}, "properties": {"_id": "159907798", "xian_dai_qu_hua": "113343962", "di_zhi": "常德路195号", "lei_bie": null, "title": "张爱玲3", "zheng_qu": "静安区"}}, {"type": "Feature", "geometry": {"coordinates": [121.477811, 31.256389], "type": "Point"}, "properties": {"_id": "159907797", "xian_dai_qu_hua": "113343962", "di_zhi": "宝通路224弄12号", "lei_bie": null, "title": "瞿秋白1", "zheng_qu": "静安区"}}, {"type": "Feature", "geometry": {"coordinates": [121.449385, 31.223413], "type": "Point"}, "properties": {"_id": "159907796", "xian_dai_qu_hua": "113343962", "di_zhi": "安义路63号", "lei_bie": null, "title": "毛泽东1", "zheng_qu": "静安区"}}, {"type": "Feature", "geometry": {"coordinates": [121.423982, 31.218465], "type": "Point"}, "properties": {"_id": "159907795", "xian_dai_qu_hua": "113344061", "di_zhi": "愚园路1315弄4号", "lei_bie": null, "title": "路易·艾黎", "zheng_qu": "长宁区"}}, {"type": "Feature", "geometry": {"coordinates": [121.42723, 31.219673], "type": "Point"}, "properties": {"_id": "159907794", "xian_dai_qu_hua": "113344061", "di_zhi": "愚园路1136弄31号", "lei_bie": null, "title": "王伯群", "zheng_qu": "长宁区"}}, {"type": "Feature", "geometry": {"coordinates": [121.429617, 31.218943], "type": "Point"}, "properties": {"_id": "159907793", "xian_dai_qu_hua": "113344061", "di_zhi": "愚园路1018号", "lei_bie": null, "title": "施蛰存2", "zheng_qu": "长宁区"}}, {"type": "Feature", "geometry": {"coordinates": [121.434991, 31.20455], "type": "Point"}, "properties": {"_id": "159907792", "xian_dai_qu_hua": "113344061", "di_zhi": "泰安路115弄4号", "lei_bie": null, "title": "周谷城", "zheng_qu": "长宁区"}}, {"type": "Feature", "geometry": {"coordinates": [121.436249, 31.205967], "type": "Point"}, "properties": {"_id": "159907791", "xian_dai_qu_hua": "113344061", "di_zhi": "泰安路76弄4号", "lei_bie": null, "title": "贺绿汀", "zheng_qu": "长宁区"}}, {"type": "Feature", "geometry": {"coordinates": [121.430101, 31.207941], "type": "Point"}, "properties": {"_id": "159907790", "xian_dai_qu_hua": "113344061", "di_zhi": "番禺路129号", "lei_bie": null, "title": "邬达克", "zheng_qu": "长宁区"}}, {"type": "Feature", "geometry": {"coordinates": [121.428946, 31.208573], "type": "Point"}, "properties": {"_id": "159907789", "xian_dai_qu_hua": "113344061", "di_zhi": "番禺路60号", "lei_bie": null, "title": "孙科", "zheng_qu": "长宁区"}}, {"type": "Feature", "geometry": {"coordinates": [121.429597, 31.220476], "type": "Point"}, "properties": {"_id": "159907788", "xian_dai_qu_hua": "113344061", "di_zhi": "江苏路284弄5号", "lei_bie": null, "title": "傅雷2", "zheng_qu": "长宁区"}}, {"type": "Feature", "geometry": {"coordinates": [121.362343, 31.189586], "type": "Point"}, "properties": {"_id": "159907787", "xian_dai_qu_hua": "113344061", "di_zhi": "虹桥路2409号", "lei_bie": null, "title": "沙逊", "zheng_qu": "长宁区"}}, {"type": "Feature", "geometry": {"coordinates": [121.377993, 31.201954], "type": "Point"}, "properties": {"_id": "159907786", "xian_dai_qu_hua": "113344061", "di_zhi": "虹桥路1921号", "lei_bie": null, "title": "姚乃炽", "zheng_qu": "长宁区"}}, {"type": "Feature", "geometry": {"coordinates": [121.44001, 31.199935], "type": "Point"}, "properties": {"_id": "159907785", "xian_dai_qu_hua": "113344014", "di_zhi": "余庆路146弄13号", "lei_bie": null, "title": "陶行知", "zheng_qu": "徐汇区"}}, {"type": "Feature", "geometry": {"coordinates": [121.456594, 31.209937], "type": "Point"}, "properties": {"_id": "159907784", "xian_dai_qu_hua": "113344014", "di_zhi": "永康路141弄6号", "lei_bie": null, "title": "胡风", "zheng_qu": "徐汇区"}}, {"type": "Feature", "geometry": {"coordinates": [121.454557, 31.218367], "type": "Point"}, "properties": {"_id": "159907783", "xian_dai_qu_hua": "113344014", "di_zhi": "新乐路100弄", "lei_bie": null, "title": "戴望舒2", "zheng_qu": "徐汇区"}}, {"type": "Feature", "geometry": {"coordinates": [121.45835, 31.20664], "type": "Point"}, "properties": {"_id": "159907782", "xian_dai_qu_hua": "113344014", "di_zhi": "襄阳南路411弄22号", "lei_bie": null, "title": "萧军\\萧红", "zheng_qu": "徐汇区"}}, {"type": "Feature", "geometry": {"coordinates": [121.457152, 31.209945], "type": "Point"}, "properties": {"_id": "159907781", "xian_dai_qu_hua": "113344014", "di_zhi": "襄阳南路306弄22号", "lei_bie": null, "title": "巴金1", "zheng_qu": "徐汇区"}}, {"type": "Feature", "geometry": {"coordinates": [121.443339, 31.212554], "type": "Point"}, "properties": {"_id": "159907780", "xian_dai_qu_hua": "113344014", "di_zhi": "五原路288弄3号", "lei_bie": null, "title": "张乐平", "zheng_qu": "徐汇区"}}, {"type": "Feature", "geometry": {"coordinates": [121.439098, 31.205637], "type": "Point"}, "properties": {"_id": "159907779", "xian_dai_qu_hua": "113344014", "di_zhi": "武康路393号", "lei_bie": null, "title": "黄兴", "zheng_qu": "徐汇区"}}, {"type": "Feature", "geometry": {"coordinates": [121.439871, 31.208003], "type": "Point"}, "properties": {"_id": "159907778", "xian_dai_qu_hua": "113344014", "di_zhi": "武康路274号", "lei_bie": null, "title": "郑洞国", "zheng_qu": "徐汇区"}}, {"type": "Feature", "geometry": {"coordinates": [121.440826, 31.207881], "type": "Point"}, "properties": {"_id": "159907777", "xian_dai_qu_hua": "113344014", "di_zhi": "武康路117弄2号", "lei_bie": null, "title": "李及兰", "zheng_qu": "徐汇区"}}, {"type": "Feature", "geometry": {"coordinates": [121.440439, 31.207848], "type": "Point"}, "properties": {"_id": "159907776", "xian_dai_qu_hua": "113344014", "di_zhi": "武康路117弄1号", "lei_bie": null, "title": "周作民", "zheng_qu": "徐汇区"}}, {"type": "Feature", "geometry": {"coordinates": [121.440576, 31.208451], "type": "Point"}, "properties": {"_id": "159907775", "xian_dai_qu_hua": "113344014", "di_zhi": "武康路115号", "lei_bie": null, "title": "孙道临", "zheng_qu": "徐汇区"}}, {"type": "Feature", "geometry": {"coordinates": [121.440668, 31.208671], "type": "Point"}, "properties": {"_id": "159907774", "xian_dai_qu_hua": "113344014", "di_zhi": "武康路113号", "lei_bie": null, "title": "巴金3", "zheng_qu": "徐汇区"}}, {"type": "Feature", "geometry": {"type": "Point", "coordinates": [121.44504960133717, 31.205939939243795]}, "properties": {"_id": "159907773", "xian_dai_qu_hua": "113344014", "di_zhi": "武康路107弄2号", "lei_bie": null, "title": "陈果夫", "zheng_qu": "徐汇区"}}, {"type": "Feature", "geometry": {"coordinates": [121.441458, 31.211107], "type": "Point"}, "properties": {"_id": "159907772", "xian_dai_qu_hua": "113344014", "di_zhi": "武康路99号", "lei_bie": null, "title": "刘靖基", "zheng_qu": "徐汇区"}}, {"type": "Feature", "geometry": {"coordinates": [121.440934, 31.209688], "type": "Point"}, "properties": {"_id": "159907771", "xian_dai_qu_hua": "113344014", "di_zhi": "武康路67号", "lei_bie": null, "title": "陈立夫", "zheng_qu": "徐汇区"}}, {"type": "Feature", "geometry": {"coordinates": [121.439609, 31.212259], "type": "Point"}, "properties": {"_id": "159907770", "xian_dai_qu_hua": "113344014", "di_zhi": "武康路40弄4号", "lei_bie": null, "title": "颜福庆", "zheng_qu": "徐汇区"}}, {"type": "Feature", "geometry": {"coordinates": [121.439997, 31.212498], "type": "Point"}, "properties": {"_id": "159907769", "xian_dai_qu_hua": "113344014", "di_zhi": "武康路40弄1号", "lei_bie": null, "title": "唐绍仪", "zheng_qu": "徐汇区"}}, {"type": "Feature", "geometry": {"coordinates": [121.449082, 31.203296], "type": "Point"}, "properties": {"_id": "159907768", "xian_dai_qu_hua": "113344014", "di_zhi": "乌鲁木齐南路178号2号楼", "lei_bie": null, "title": "夏衍3", "zheng_qu": "徐汇区"}}, {"type": "Feature", "geometry": {"coordinates": [121.439361, 31.196568], "type": "Point"}, "properties": {"_id": "159907767", "xian_dai_qu_hua": "113344014", "di_zhi": "天平路310弄", "lei_bie": null, "title": "费穆", "zheng_qu": "徐汇区"}}, {"type": "Feature", "geometry": {"coordinates": [121.44839, 31.209082], "type": "Point"}, "properties": {"_id": "159907766", "xian_dai_qu_hua": "113344014", "di_zhi": "桃江路45号", "lei_bie": null, "title": "宋庆龄2", "zheng_qu": "徐汇区"}}, {"type": "Feature", "geometry": {"coordinates": [121.454369, 31.20589], "type": "Point"}, "properties": {"_id": "159907765", "xian_dai_qu_hua": "113344014", "di_zhi": "太原路160号", "lei_bie": null, "title": "马歇尔", "zheng_qu": "徐汇区"}}, {"type": "Feature", "geometry": {"coordinates": [121.435377, 31.185093], "type": "Point"}, "properties": {"_id": "159907764", "xian_dai_qu_hua": "113344014", "di_zhi": "蒲汇塘路55号", "lei_bie": null, "title": "马相伯", "zheng_qu": "徐汇区"}}, {"type": "Feature", "geometry": {"coordinates": [121.436338, 31.202439], "type": "Point"}, "properties": {"_id": "159907763", "xian_dai_qu_hua": "113344014", "di_zhi": "淮海中路1897号", "lei_bie": null, "title": "杜重远", "zheng_qu": "徐汇区"}}, {"type": "Feature", "geometry": {"coordinates": [121.438833, 31.203937], "type": "Point"}, "properties": {"_id": "159907762", "xian_dai_qu_hua": "113344014", "di_zhi": "淮海中路1843号", "lei_bie": null, "title": "宋庆龄1", "zheng_qu": "徐汇区"}}, {"type": "Feature", "geometry": {"coordinates": [121.44002, 31.205636], "type": "Point"}, "properties": {"_id": "159907761", "xian_dai_qu_hua": "113344014", "di_zhi": "淮海中路1768弄", "lei_bie": null, "title": "邵洵美", "zheng_qu": "徐汇区"}}, {"type": "Feature", "geometry": {"coordinates": [121.444145, 31.208241], "type": "Point"}, "properties": {"_id": "159907760", "xian_dai_qu_hua": "113344014", "di_zhi": "淮海中路1610弄2号", "lei_bie": null, "title": "蒋经国", "zheng_qu": "徐汇区"}}, {"type": "Feature", "geometry": {"coordinates": [121.4514, 31.212835], "type": "Point"}, "properties": {"_id": "159907759", "xian_dai_qu_hua": "113344014", "di_zhi": "淮海中路1285弄24号", "lei_bie": null, "title": "张元济", "zheng_qu": "徐汇区"}}, {"type": "Feature", "geometry": {"coordinates": [121.452217, 31.212883], "type": "Point"}, "properties": {"_id": "159907758", "xian_dai_qu_hua": "113344014", "di_zhi": "淮海中路1273弄1-22号", "lei_bie": null, "title": "赵丹", "zheng_qu": "徐汇区"}}, {"type": "Feature", "geometry": {"coordinates": [121.437026, 31.212213], "type": "Point"}, "properties": {"_id": "159907757", "xian_dai_qu_hua": "113344014", "di_zhi": "华山路1006弄11号", "lei_bie": null, "title": "言慧珠", "zheng_qu": "徐汇区"}}, {"type": "Feature", "geometry": {"coordinates": [121.437636, 31.211885], "type": "Point"}, "properties": {"_id": "159907756", "xian_dai_qu_hua": "113344014", "di_zhi": "华山路978号", "lei_bie": null, "title": "白杨", "zheng_qu": "徐汇区"}}, {"type": "Feature", "geometry": {"coordinates": [121.437966, 31.211525], "type": "Point"}, "properties": {"_id": "159907755", "xian_dai_qu_hua": "113344014", "di_zhi": "华山路849号", "lei_bie": null, "title": "李经迈", "zheng_qu": "徐汇区"}}, {"type": "Feature", "geometry": {"coordinates": [121.440066, 31.215778], "type": "Point"}, "properties": {"_id": "159907754", "xian_dai_qu_hua": "113344014", "di_zhi": "华山路699-731号", "lei_bie": null, "title": "周璇", "zheng_qu": "徐汇区"}}, {"type": "Feature", "geometry": {"coordinates": [121.417995, 31.165251], "type": "Point"}, "properties": {"_id": "159907753", "xian_dai_qu_hua": "113344014", "di_zhi": "桂林路128号", "lei_bie": null, "title": "黄金荣", "zheng_qu": "徐汇区"}}, {"type": "Feature", "geometry": {"coordinates": [121.439507, 31.209514], "type": "Point"}, "properties": {"_id": "159907752", "xian_dai_qu_hua": "113344014", "di_zhi": "高邮路5弄25号", "lei_bie": null, "title": "郑振铎", "zheng_qu": "徐汇区"}}, {"type": "Feature", "geometry": {"coordinates": [121.444095, 31.203756], "type": "Point"}, "properties": {"_id": "159907751", "xian_dai_qu_hua": "113344014", "di_zhi": "高安路18弄20号", "lei_bie": null, "title": "荣德生", "zheng_qu": "徐汇区"}}, {"type": "Feature", "geometry": {"coordinates": [121.455894, 31.211709], "type": "Point"}, "properties": {"_id": "159907750", "xian_dai_qu_hua": "113344014", "di_zhi": "复兴中路1295弄30号", "lei_bie": null, "title": "钱名山", "zheng_qu": "徐汇区"}}, {"type": "Feature", "geometry": {"coordinates": [121.456224, 31.212105], "type": "Point"}, "properties": {"_id": "159907749", "xian_dai_qu_hua": "113344014", "di_zhi": "复兴中路1283号", "lei_bie": null, "title": "贺天健", "zheng_qu": "徐汇区"}}, {"type": "Feature", "geometry": {"coordinates": [121.442458, 31.210551], "type": "Point"}, "properties": {"_id": "159907748", "xian_dai_qu_hua": "113344014", "di_zhi": "复兴西路147号", "lei_bie": null, "title": "柯灵2", "zheng_qu": "徐汇区"}}, {"type": "Feature", "geometry": {"coordinates": [121.452091, 31.209755], "type": "Point"}, "properties": {"_id": "159907747", "xian_dai_qu_hua": "113344014", "di_zhi": "汾阳路150号", "lei_bie": null, "title": "白崇禧", "zheng_qu": "徐汇区"}}, {"type": "Feature", "geometry": {"coordinates": [121.454484, 31.210318], "type": "Point"}, "properties": {"_id": "159907746", "xian_dai_qu_hua": "113344014", "di_zhi": "汾阳路79号", "lei_bie": null, "title": "公董局总董", "zheng_qu": "徐汇区"}}, {"type": "Feature", "geometry": {"coordinates": [121.455282, 31.212591], "type": "Point"}, "properties": {"_id": "159907745", "xian_dai_qu_hua": "113344014", "di_zhi": "汾阳路45号", "lei_bie": null, "title": "丁贵堂", "zheng_qu": "徐汇区"}}, {"type": "Feature", "geometry": {"coordinates": [121.455361, 31.213097], "type": "Point"}, "properties": {"_id": "159907744", "xian_dai_qu_hua": "113344014", "di_zhi": "汾阳路29号", "lei_bie": null, "title": "陈毅2", "zheng_qu": "徐汇区"}}, {"type": "Feature", "geometry": {"coordinates": [121.449759, 31.208459], "type": "Point"}, "properties": {"_id": "159907743", "xian_dai_qu_hua": "113344014", "di_zhi": "东平路9号", "lei_bie": null, "title": "蒋介石", "zheng_qu": "徐汇区"}}, {"type": "Feature", "geometry": {"coordinates": [121.450519, 31.208328], "type": "Point"}, "properties": {"_id": "159907742", "xian_dai_qu_hua": "113344014", "di_zhi": "东平路7号", "lei_bie": null, "title": "孔祥熙3", "zheng_qu": "徐汇区"}}, {"type": "Feature", "geometry": {"coordinates": [121.453543, 31.216742], "type": "Point"}, "properties": {"_id": "159907741", "xian_dai_qu_hua": "113344014", "di_zhi": "东湖路70号", "lei_bie": null, "title": "杜月笙", "zheng_qu": "徐汇区"}}, {"type": "Feature", "geometry": {"coordinates": [121.44913, 31.216513], "type": "Point"}, "properties": {"_id": "159907740", "xian_dai_qu_hua": "113344014", "di_zhi": "长乐路788号", "lei_bie": null, "title": "周信芳", "zheng_qu": "徐汇区"}}, {"type": "Feature", "geometry": {"coordinates": [121.440897, 31.197684], "type": "Point"}, "properties": {"_id": "159907739", "xian_dai_qu_hua": "113344014", "di_zhi": "余庆路190号", "lei_bie": null, "title": "陈毅1", "zheng_qu": "徐汇区"}}, {"type": "Feature", "geometry": {"coordinates": [121.45651, 31.207931], "type": "Point"}, "properties": {"_id": "159907738", "xian_dai_qu_hua": "113343986", "di_zhi": "永嘉路383号", "lei_bie": null, "title": "孔祥熙1", "zheng_qu": "黄浦区"}}, {"type": "Feature", "geometry": {"coordinates": [121.456805, 31.208222], "type": "Point"}, "properties": {"_id": "159907737", "xian_dai_qu_hua": "113343986", "di_zhi": "永嘉路371-381号", "lei_bie": null, "title": "田汉", "zheng_qu": "黄浦区"}}, {"type": "Feature", "geometry": {"coordinates": [121.4752, 31.220122], "type": "Point"}, "properties": {"_id": "159907736", "xian_dai_qu_hua": "113343986", "di_zhi": "兴业路76号", "lei_bie": null, "title": "李书城\\李汉俊", "zheng_qu": "黄浦区"}}, {"type": "Feature", "geometry": {"coordinates": [121.467751, 31.216117], "type": "Point"}, "properties": {"_id": "159907735", "xian_dai_qu_hua": "113343986", "di_zhi": "香山路7号", "lei_bie": null, "title": "孙中山2", "zheng_qu": "黄浦区"}}, {"type": "Feature", "geometry": {"coordinates": [121.468829, 31.213496], "type": "Point"}, "properties": {"_id": "159907734", "xian_dai_qu_hua": "113343986", "di_zhi": "思南路87号", "lei_bie": null, "title": "梅兰芳", "zheng_qu": "黄浦区"}}, {"type": "Feature", "geometry": {"coordinates": [121.468413, 31.214201], "type": "Point"}, "properties": {"_id": "159907733", "xian_dai_qu_hua": "113343986", "di_zhi": "思南路73号", "lei_bie": null, "title": "周恩来", "zheng_qu": "黄浦区"}}, {"type": "Feature", "geometry": {"coordinates": [121.466458, 31.217579], "type": "Point"}, "properties": {"_id": "159907732", "xian_dai_qu_hua": "113343986", "di_zhi": "思南路36号", "lei_bie": null, "title": "杨森", "zheng_qu": "黄浦区"}}, {"type": "Feature", "geometry": {"coordinates": [121.463327, 31.209183], "type": "Point"}, "properties": {"_id": "159907731", "xian_dai_qu_hua": "113343986", "di_zhi": "绍兴路74号", "lei_bie": null, "title": "张群", "zheng_qu": "黄浦区"}}, {"type": "Feature", "geometry": {"coordinates": [121.462798, 31.209399], "type": "Point"}, "properties": {"_id": "159907730", "xian_dai_qu_hua": "113343986", "di_zhi": "绍兴路8号", "lei_bie": null, "title": "施蛰存1", "zheng_qu": "黄浦区"}}, {"type": "Feature", "geometry": {"coordinates": [121.461354, 31.212684], "type": "Point"}, "properties": {"_id": "159907729", "xian_dai_qu_hua": "113343986", "di_zhi": "陕西南路213号", "lei_bie": null, "title": "张爱玲2", "zheng_qu": "黄浦区"}}, {"type": "Feature", "geometry": {"coordinates": [121.458429, 31.218859], "type": "Point"}, "properties": {"_id": "159907728", "xian_dai_qu_hua": "113343986", "di_zhi": "陕西南路39弄93号", "lei_bie": null, "title": "丰子恺", "zheng_qu": "黄浦区"}}, {"type": "Feature", "geometry": {"coordinates": [121.467638, 31.218896], "type": "Point"}, "properties": {"_id": "159907727", "xian_dai_qu_hua": "113343986", "di_zhi": "南昌路148弄1号", "lei_bie": null, "title": "沈尹默1", "zheng_qu": "黄浦区"}}, {"type": "Feature", "geometry": {"coordinates": [121.468836, 31.219504], "type": "Point"}, "properties": {"_id": "159907726", "xian_dai_qu_hua": "113343986", "di_zhi": "南昌路100弄2号", "lei_bie": null, "title": "陈独秀", "zheng_qu": "黄浦区"}}, {"type": "Feature", "geometry": {"coordinates": [121.467883, 31.218534], "type": "Point"}, "properties": {"_id": "159907725", "xian_dai_qu_hua": "113343986", "di_zhi": "南昌路53号", "lei_bie": null, "title": "林风眠", "zheng_qu": "黄浦区"}}, {"type": "Feature", "geometry": {"coordinates": [121.474072, 31.217952], "type": "Point"}, "properties": {"_id": "159907724", "xian_dai_qu_hua": "113343986", "di_zhi": "马当路278弄16号", "lei_bie": null, "title": "张大千", "zheng_qu": "黄浦区"}}, {"type": "Feature", "geometry": {"coordinates": [121.460487, 31.21598], "type": "Point"}, "properties": {"_id": "159907723", "xian_dai_qu_hua": "113343986", "di_zhi": "淮海中路927弄99号", "lei_bie": null, "title": "徐悲鸿", "zheng_qu": "黄浦区"}}, {"type": "Feature", "geometry": {"coordinates": [121.460943, 31.216328], "type": "Point"}, "properties": {"_id": "159907722", "xian_dai_qu_hua": "113343986", "di_zhi": "淮海中路927弄64号", "lei_bie": null, "title": "许广平", "zheng_qu": "黄浦区"}}, {"type": "Feature", "geometry": {"coordinates": [121.460529, 31.21622], "type": "Point"}, "properties": {"_id": "159907721", "xian_dai_qu_hua": "113343986", "di_zhi": "淮海中路927弄59号", "lei_bie": null, "title": "巴金2", "zheng_qu": "黄浦区"}}, {"type": "Feature", "geometry": {"coordinates": [121.460874, 31.216774], "type": "Point"}, "properties": {"_id": "159907720", "xian_dai_qu_hua": "113343986", "di_zhi": "淮海中路927弄26号", "lei_bie": null, "title": "竺可桢", "zheng_qu": "黄浦区"}}, {"type": "Feature", "geometry": {"coordinates": [121.460553, 31.216972], "type": "Point"}, "properties": {"_id": "159907719", "xian_dai_qu_hua": "113343986", "di_zhi": "淮海中路899弄", "lei_bie": null, "title": "钱钟书2", "zheng_qu": "黄浦区"}}, {"type": "Feature", "geometry": {"coordinates": [121.46621, 31.220081], "type": "Point"}, "properties": {"_id": "159907718", "xian_dai_qu_hua": "113343986", "di_zhi": "淮海中路650弄3号", "lei_bie": null, "title": "孙中山1", "zheng_qu": "黄浦区"}}, {"type": "Feature", "geometry": {"coordinates": [121.471632, 31.21407], "type": "Point"}, "properties": {"_id": "159907717", "xian_dai_qu_hua": "113343986", "di_zhi": "合肥路592弄25号", "lei_bie": null, "title": "张充仁", "zheng_qu": "黄浦区"}}, {"type": "Feature", "geometry": {"coordinates": [121.465934, 31.216703], "type": "Point"}, "properties": {"_id": "159907716", "xian_dai_qu_hua": "113343986", "di_zhi": "皋兰路18号", "lei_bie": null, "title": "虞洽卿", "zheng_qu": "黄浦区"}}, {"type": "Feature", "geometry": {"coordinates": [121.467478, 31.217245], "type": "Point"}, "properties": {"_id": "159907715", "xian_dai_qu_hua": "113343986", "di_zhi": "皋兰路1号", "lei_bie": null, "title": "张学良", "zheng_qu": "黄浦区"}}, {"type": "Feature", "geometry": {"coordinates": [121.466029, 31.214786], "type": "Point"}, "properties": {"_id": "159907714", "xian_dai_qu_hua": "113343986", "di_zhi": "复兴中路573号", "lei_bie": null, "title": "钱钟书1", "zheng_qu": "黄浦区"}}, {"type": "Feature", "geometry": {"coordinates": [121.469189, 31.215253], "type": "Point"}, "properties": {"_id": "159907713", "xian_dai_qu_hua": "113343986", "di_zhi": "复兴中路517号", "lei_bie": null, "title": "柳亚子", "zheng_qu": "黄浦区"}}, {"type": "Feature", "geometry": {"coordinates": [121.471506, 31.215712], "type": "Point"}, "properties": {"_id": "159907712", "xian_dai_qu_hua": "113343986", "di_zhi": "复兴中路512号", "lei_bie": null, "title": "刘海粟", "zheng_qu": "黄浦区"}}, {"type": "Feature", "geometry": {"coordinates": [121.472823, 31.21647], "type": "Point"}, "properties": {"_id": "159907711", "xian_dai_qu_hua": "113343986", "di_zhi": "淡水路214弄4号", "lei_bie": null, "title": "艾青", "zheng_qu": "黄浦区"}}, {"type": "Feature", "geometry": {"coordinates": [121.473105, 31.217495], "type": "Point"}, "properties": {"_id": "159907710", "xian_dai_qu_hua": "113343986", "di_zhi": "淡水路196号", "lei_bie": null, "title": "丁玲2", "zheng_qu": "黄浦区"}}, {"type": "Feature", "geometry": {"coordinates": [121.471638, 31.22399], "type": "Point"}, "properties": {"_id": "159907709", "xian_dai_qu_hua": "113343986", "di_zhi": "淡水路66弄4号", "lei_bie": null, "title": "萧楚女", "zheng_qu": "黄浦区"}}, {"type": "Feature", "geometry": {"coordinates": [121.471645, 31.214536], "type": "Point"}, "properties": {"_id": "159907708", "xian_dai_qu_hua": "113343986", "di_zhi": "重庆南路205弄60号", "lei_bie": null, "title": "丁玲1", "zheng_qu": "黄浦区"}}, {"type": "Feature", "geometry": {"coordinates": [121.470892, 31.214383], "type": "Point"}, "properties": {"_id": "159907707", "xian_dai_qu_hua": "113343986", "di_zhi": "重庆南路205弄54号", "lei_bie": null, "title": "邹韬奋", "zheng_qu": "黄浦区"}}, {"type": "Feature", "geometry": {"coordinates": [121.471684, 31.216605], "type": "Point"}, "properties": {"_id": "159907706", "xian_dai_qu_hua": "113343986", "di_zhi": "重庆南路169弄", "lei_bie": null, "title": "傅雷1", "zheng_qu": "黄浦区"}}]}