{"type": "FeatureCollection", "features": [{"type": "Feature", "geometry": {"type": "Point", "coordinates": [121.419943, 31.218894]}, "properties": {"_id": "135138596", "title": "兆丰公园"}}, {"type": "Feature", "geometry": {"coordinates": [121.431017, 31.219401], "type": "Point"}, "properties": {"_id": "135138439", "title": "忆定盘路"}}, {"type": "Feature", "geometry": {"coordinates": [121.437295, 31.221276], "type": "Point"}, "properties": {"_id": "135138274", "title": "愚园路七五四号"}}, {"type": "Feature", "geometry": {"coordinates": [121.44195, 31.223253], "type": "Point"}, "properties": {"_id": "135138068", "title": "愚园路五二八号"}}, {"type": "Feature", "geometry": {"type": "Point", "coordinates": [121.444465, 31.223666]}, "properties": {"_id": "135137891", "title": "静安寺"}}, {"type": "Feature", "geometry": {"type": "Point", "coordinates": [121.434581, 31.244998]}, "properties": {"_id": "135137706", "title": "小沙渡"}}, {"type": "Feature", "geometry": {"type": "Point", "coordinates": [121.439122, 31.248682]}, "properties": {"_id": "135137561", "title": "宜昌路"}}, {"type": "Feature", "geometry": {"type": "Point", "coordinates": [121.498891, 31.257999]}, "properties": {"_id": "135137339", "title": "岳州路"}}, {"type": "Feature", "geometry": {"coordinates": [121.481244, 31.247838], "type": "Point"}, "properties": {"_id": "135137171", "title": "北河南路海宁路"}}, {"type": "Feature", "geometry": {"type": "Point", "coordinates": [121.475338, 31.245899]}, "properties": {"_id": "135136993", "title": "北浙江路"}}, {"type": "Feature", "geometry": {"coordinates": [121.471356, 31.243335], "type": "Point"}, "properties": {"_id": "135136836", "title": "北西藏路开封路"}}, {"type": "Feature", "geometry": {"type": "Point", "coordinates": [121.474381, 31.23467]}, "properties": {"_id": "135136643", "title": "英大马路"}}, {"type": "Feature", "geometry": {"type": "Point", "coordinates": [121.527257, 31.2662]}, "properties": {"_id": "135136452", "title": "兰路"}}, {"type": "Feature", "geometry": {"type": "Point", "coordinates": [121.521939, 31.263876]}, "properties": {"_id": "135136307", "title": "梅地拉路"}}, {"type": "Feature", "geometry": {"type": "Point", "coordinates": [121.517764, 31.261728]}, "properties": {"_id": "135136128", "title": "韬朋路"}}, {"type": "Feature", "geometry": {"type": "Point", "coordinates": [121.5131, 31.258154]}, "properties": {"_id": "135135959", "title": "大连湾路"}}, {"type": "Feature", "geometry": {"type": "Point", "coordinates": [121.508936, 31.25959]}, "properties": {"_id": "135135814", "title": "保定路"}}, {"type": "Feature", "geometry": {"type": "Point", "coordinates": [121.505409, 31.254811]}, "properties": {"_id": "135135673", "title": "昆明路"}}, {"type": "Feature", "geometry": {"type": "Point", "coordinates": [121.500704, 31.254375]}, "properties": {"_id": "135135402", "title": "兆丰路"}}, {"type": "Feature", "geometry": {"type": "Point", "coordinates": [121.497518, 31.253249]}, "properties": {"_id": "135135229", "title": "新记浜路"}}, {"type": "Feature", "geometry": {"type": "Point", "coordinates": [121.492356, 31.250173]}, "properties": {"_id": "135135035", "title": "里虹桥"}}, {"type": "Feature", "geometry": {"type": "Point", "coordinates": [121.489869, 31.248002]}, "properties": {"_id": "135134891", "title": "虹口菜市"}}, {"type": "Feature", "geometry": {"type": "Point", "coordinates": [121.489478, 31.24583]}, "properties": {"_id": "135134632", "title": "天潼路吴淞路转角"}}, {"type": "Feature", "geometry": {"type": "Point", "coordinates": [121.485769, 31.234705]}, "properties": {"_id": "135134400", "title": "老巡捕房"}}, {"type": "Feature", "geometry": {"coordinates": [121.481662, 31.233578], "type": "Point"}, "properties": {"_id": "135133973", "title": "大新街"}}, {"type": "Feature", "geometry": {"coordinates": [121.476433, 31.231695], "type": "Point"}, "properties": {"_id": "135133723", "title": "四马路西"}}, {"type": "Feature", "geometry": {"type": "Point", "coordinates": [121.478505, 31.228573]}, "properties": {"_id": "135133582", "title": "大世界"}}, {"type": "Feature", "geometry": {"coordinates": [121.480353, 31.225656], "type": "Point"}, "properties": {"_id": "135133213", "title": "宁波路"}}, {"type": "Feature", "geometry": {"coordinates": [121.481846, 31.220569], "type": "Point"}, "properties": {"_id": "135133064", "title": "南阳桥"}}, {"type": "Feature", "geometry": {"coordinates": [121.478387, 31.217463], "type": "Point"}, "properties": {"_id": "135132711", "title": "辣斐德路"}}, {"type": "Feature", "geometry": {"coordinates": [121.479249, 31.21333], "type": "Point"}, "properties": {"_id": "135132550", "title": "康悌路"}}, {"type": "Feature", "geometry": {"type": "Point", "coordinates": [121.473301, 31.208668]}, "properties": {"_id": "135132324", "title": "斜桥"}}, {"type": "Feature", "geometry": {"type": "Point", "coordinates": [121.427663, 31.228329]}, "properties": {"_id": "135131935", "title": "曹家渡"}}, {"type": "Feature", "geometry": {"type": "Point", "coordinates": [121.43097, 31.235183]}, "properties": {"_id": "135131790", "title": "槟榔路"}}, {"type": "Feature", "geometry": {"type": "Point", "coordinates": [121.435729, 31.238322]}, "properties": {"_id": "135131482", "title": "胶州路"}}, {"type": "Feature", "geometry": {"coordinates": [121.439827, 31.242135], "type": "Point"}, "properties": {"_id": "135131317", "title": "纪念塔"}}, {"type": "Feature", "geometry": {"type": "Point", "coordinates": [121.443479, 31.244088]}, "properties": {"_id": "135131168", "title": "戈登路劳勃生路"}}, {"type": "Feature", "geometry": {"type": "Point", "coordinates": [121.448596, 31.238704]}, "properties": {"_id": "135130976", "title": "麦根路戈登路转角"}}, {"type": "Feature", "geometry": {"type": "Point", "coordinates": [121.454387, 31.239387]}, "properties": {"_id": "135130835", "title": "叉袋角"}}, {"type": "Feature", "geometry": {"coordinates": [121.4557, 31.237219], "type": "Point"}, "properties": {"_id": "135130616", "title": "麦特赫司脱路"}}, {"type": "Feature", "geometry": {"type": "Point", "coordinates": [121.459112, 31.237651]}, "properties": {"_id": "135130467", "title": "舢板厂桥"}}, {"type": "Feature", "geometry": {"type": "Point", "coordinates": [121.461368, 31.232991]}, "properties": {"_id": "135130257", "title": "爱文义路卡德路转角"}}, {"type": "Feature", "geometry": {"type": "Point", "coordinates": [121.466122, 31.234803]}, "properties": {"_id": "135130048", "title": "成都路"}}, {"type": "Feature", "geometry": {"type": "Point", "coordinates": [121.469948, 31.23606]}, "properties": {"_id": "135129853", "title": "派克路"}}, {"type": "Feature", "geometry": {"type": "Point", "coordinates": [121.473456, 31.237765]}, "properties": {"_id": "135129627", "title": "北泥城桥"}}, {"type": "Feature", "geometry": {"type": "Point", "coordinates": [121.483659, 31.240461]}, "properties": {"_id": "135129309", "title": "天后宫桥"}}, {"type": "Feature", "geometry": {"coordinates": [121.479463, 31.250025], "type": "Point"}, "properties": {"_id": "135129067", "title": "北火车站"}}, {"type": "Feature", "geometry": {"type": "Point", "coordinates": [121.481612, 31.246858]}, "properties": {"_id": "135128926", "title": "蓬路"}}, {"type": "Feature", "geometry": {"type": "Point", "coordinates": [121.482695, 31.242423]}, "properties": {"_id": "135128775", "title": "天后宫桥"}}, {"type": "Feature", "geometry": {"type": "Point", "coordinates": [121.479066, 31.239176]}, "properties": {"_id": "135128296", "title": "老闸桥"}}, {"type": "Feature", "geometry": {"type": "Point", "coordinates": [121.480279, 31.235906]}, "properties": {"_id": "135128077", "title": "英大马路"}}, {"type": "Feature", "geometry": {"type": "Point", "coordinates": [121.481693, 31.233632]}, "properties": {"_id": "135127921", "title": "四马路"}}, {"type": "Feature", "geometry": {"type": "Point", "coordinates": [121.483272, 31.23089]}, "properties": {"_id": "135127751", "title": "郑家木桥"}}, {"type": "Feature", "geometry": {"type": "Point", "coordinates": [121.484978, 31.228066]}, "properties": {"_id": "135127552", "title": "民国路"}}, {"type": "Feature", "geometry": {"type": "Point", "coordinates": [121.486744, 31.250817]}, "properties": {"_id": "135127260", "title": "乍浦路海宁路"}}, {"type": "Feature", "geometry": {"type": "Point", "coordinates": [121.485118, 31.248138]}, "properties": {"_id": "135127118", "title": "蓬路"}}, {"type": "Feature", "geometry": {"coordinates": [121.485617, 31.245112], "type": "Point"}, "properties": {"_id": "135126815", "title": "北四川路天潼路"}}, {"type": "Feature", "geometry": {"type": "Point", "coordinates": [121.486774, 31.2407]}, "properties": {"_id": "135126645", "title": "北京路四川路转角"}}, {"type": "Feature", "geometry": {"type": "Point", "coordinates": [121.486499, 31.238103]}, "properties": {"_id": "135126088", "title": "英大马路"}}, {"type": "Feature", "geometry": {"type": "Point", "coordinates": [121.487369, 31.235037]}, "properties": {"_id": "135125840", "title": "四马路"}}, {"type": "Feature", "geometry": {"coordinates": [121.488324, 31.23179], "type": "Point"}, "properties": {"_id": "135125531", "title": "三洋泾桥"}}, {"type": "Feature", "geometry": {"type": "Point", "coordinates": [121.489143, 31.229389]}, "properties": {"_id": "135124705", "title": "民国路"}}]}