{"type": "FeatureCollection", "features": [{"type": "Feature", "geometry": {"type": "Point", "coordinates": [121.531852, 31.306666]}, "properties": {"_id": "136127885", "title": "市府宿舍"}}, {"type": "Feature", "geometry": {"type": "Point", "coordinates": [121.51939, 31.31047]}, "properties": {"_id": "136127765", "title": "府西内路"}}, {"type": "Feature", "geometry": {"coordinates": [121.519405, 31.30478], "type": "Point"}, "properties": {"_id": "136127685", "title": "第一公园"}}, {"type": "Feature", "geometry": {"coordinates": [121.527253, 31.312514], "type": "Point"}, "properties": {"_id": "136127451", "title": "市政府"}}, {"type": "Feature", "geometry": {"type": "Point", "coordinates": [121.515279, 31.311534]}, "properties": {"_id": "136127361", "title": "市光路"}}, {"type": "Feature", "geometry": {"type": "Point", "coordinates": [121.510379, 31.309684]}, "properties": {"_id": "136127267", "title": "政同路"}}, {"type": "Feature", "geometry": {"type": "Point", "coordinates": [121.515475, 31.30007]}, "properties": {"_id": "136127170", "title": "淞沪路"}}, {"type": "Feature", "geometry": {"type": "Point", "coordinates": [121.508936, 31.297883]}, "properties": {"_id": "136126885", "title": "国定路"}}, {"type": "Feature", "geometry": {"coordinates": [121.501572, 31.295842], "type": "Point"}, "properties": {"_id": "136126716", "title": "复旦大学"}}, {"type": "Feature", "geometry": {"type": "Point", "coordinates": [121.4806, 31.216277]}, "properties": {"_id": "136126281", "title": "劳神父路"}}, {"type": "Feature", "geometry": {"type": "Point", "coordinates": [121.481844, 31.220934]}, "properties": {"_id": "136126201", "title": "和平路"}}, {"type": "Feature", "geometry": {"type": "Point", "coordinates": [121.48376, 31.227085]}, "properties": {"_id": "136126108", "title": "新桥街"}}, {"type": "Feature", "geometry": {"coordinates": [121.503837, 31.22126], "type": "Point"}, "properties": {"_id": "136125839", "title": "老白渡街"}}, {"type": "Feature", "geometry": {"type": "Point", "coordinates": [121.506519, 31.214067]}, "properties": {"_id": "136125680", "title": "董家渡街"}}, {"type": "Feature", "geometry": {"type": "Point", "coordinates": [121.502641, 31.21036]}, "properties": {"_id": "136125529", "title": "薛家浜路"}}, {"type": "Feature", "geometry": {"type": "Point", "coordinates": [121.491568, 31.208941]}, "properties": {"_id": "136125425", "title": "国货路"}}, {"type": "Feature", "geometry": {"type": "Point", "coordinates": [121.488233, 31.213997]}, "properties": {"_id": "136125335", "title": "大兴街"}}, {"type": "Feature", "geometry": {"type": "Point", "coordinates": [121.480473, 31.20714]}, "properties": {"_id": "136125255", "title": "局门路"}}, {"type": "Feature", "geometry": {"type": "Point", "coordinates": [121.474276, 31.206139]}, "properties": {"_id": "136125050", "title": "鲁班路"}}, {"type": "Feature", "geometry": {"type": "Point", "coordinates": [121.473284, 31.208534]}, "properties": {"_id": "136124970", "title": "斜徐路"}}, {"type": "Feature", "geometry": {"type": "Point", "coordinates": [121.48284, 31.224284]}, "properties": {"_id": "136124851", "title": "小北门"}}, {"type": "Feature", "geometry": {"type": "Point", "coordinates": [121.487108, 31.229023]}, "properties": {"_id": "136124767", "title": "老北门"}}, {"type": "Feature", "geometry": {"type": "Point", "coordinates": [121.494101, 31.229382]}, "properties": {"_id": "136124687", "title": "新开河"}}, {"type": "Feature", "geometry": {"type": "Point", "coordinates": [121.497265, 31.22531]}, "properties": {"_id": "136124595", "title": "小东门"}}, {"type": "Feature", "geometry": {"type": "Point", "coordinates": [121.489185, 31.214643]}, "properties": {"_id": "136124368", "title": "尚文门"}}, {"type": "Feature", "geometry": {"type": "Point", "coordinates": [121.497901, 31.215349]}, "properties": {"_id": "136124241", "title": "小南门"}}, {"type": "Feature", "geometry": {"type": "Point", "coordinates": [121.498958, 31.220936]}, "properties": {"_id": "136124152", "title": "大东门"}}, {"type": "Feature", "geometry": {"type": "Point", "coordinates": [121.49529, 31.222009]}, "properties": {"_id": "136124068", "title": "县基路"}}, {"type": "Feature", "geometry": {"type": "Point", "coordinates": [121.488599, 31.22144]}, "properties": {"_id": "136123797", "title": "松雪街"}}, {"type": "Feature", "geometry": {"type": "Point", "coordinates": [121.450332, 31.173135]}, "properties": {"_id": "136123672", "title": "龙华镇"}}, {"type": "Feature", "geometry": {"type": "Point", "coordinates": [121.4525, 31.181759]}, "properties": {"_id": "136123494", "title": "茂公桥"}}, {"type": "Feature", "geometry": {"type": "Point", "coordinates": [121.458619, 31.188042]}, "properties": {"_id": "136123230", "title": "小木桥宅"}}, {"type": "Feature", "geometry": {"coordinates": [121.464955, 31.192256], "type": "Point"}, "properties": {"_id": "136123128", "title": "南洋中学"}}, {"type": "Feature", "geometry": {"type": "Point", "coordinates": [121.473557, 31.196308]}, "properties": {"_id": "136122934", "title": "打浦路"}}, {"type": "Feature", "geometry": {"coordinates": [121.485581, 31.200239], "type": "Point"}, "properties": {"_id": "136122608", "title": "康衢路"}}, {"type": "Feature", "geometry": {"coordinates": [121.484699, 31.206878], "type": "Point"}, "properties": {"_id": "136122122", "title": "沪闵路"}}, {"type": "Feature", "geometry": {"coordinates": [121.481982, 31.211315], "type": "Point"}, "properties": {"_id": "136121878", "title": "斜桥"}}, {"type": "Feature", "geometry": {"type": "Point", "coordinates": [121.484859, 31.219264]}, "properties": {"_id": "136121775", "title": "老西门"}}, {"type": "Feature", "geometry": {"type": "Point", "coordinates": [121.331041, 31.276965]}, "properties": {"_id": "136041428", "title": "许家桥"}}, {"type": "Feature", "geometry": {"type": "Point", "coordinates": [121.355657, 31.272602]}, "properties": {"_id": "136041344", "title": "八字桥"}}, {"type": "Feature", "geometry": {"coordinates": [121.376379, 31.268801], "type": "Point"}, "properties": {"_id": "136041146", "title": "杨家桥"}}, {"type": "Feature", "geometry": {"type": "Point", "coordinates": [121.400921, 31.263901]}, "properties": {"_id": "136040630", "title": "真茹"}}, {"type": "Feature", "geometry": {"coordinates": [121.413584, 31.26125], "type": "Point"}, "properties": {"_id": "136040487", "title": "小场庙"}}, {"type": "Feature", "geometry": {"coordinates": [121.42617, 31.258871], "type": "Point"}, "properties": {"_id": "136040285", "title": "顾家宅"}}, {"type": "Feature", "geometry": {"type": "Point", "coordinates": [121.441667, 31.255875]}, "properties": {"_id": "136040127", "title": "中山路"}}, {"type": "Feature", "geometry": {"type": "Point", "coordinates": [121.449638, 31.252914]}, "properties": {"_id": "136039992", "title": "太阳桥"}}, {"type": "Feature", "geometry": {"type": "Point", "coordinates": [121.455201, 31.250822]}, "properties": {"_id": "136039906", "title": "井亭路"}}, {"type": "Feature", "geometry": {"type": "Point", "coordinates": [121.459749, 31.248955]}, "properties": {"_id": "136039814", "title": "大统路"}}, {"type": "Feature", "geometry": {"type": "Point", "coordinates": [121.4629, 31.247661]}, "properties": {"_id": "136039718", "title": "交通路"}}, {"type": "Feature", "geometry": {"type": "Point", "coordinates": [121.46356, 31.250156]}, "properties": {"_id": "136039622", "title": "共和新路"}}, {"type": "Feature", "geometry": {"type": "Point", "coordinates": [121.469489, 31.2504]}, "properties": {"_id": "136039508", "title": "宋公园路"}}, {"type": "Feature", "geometry": {"type": "Point", "coordinates": [121.480987, 31.299772]}, "properties": {"_id": "136039317", "title": "新市路"}}, {"type": "Feature", "geometry": {"type": "Point", "coordinates": [121.493159, 31.299475]}, "properties": {"_id": "136039241", "title": "跑马场"}}, {"type": "Feature", "geometry": {"type": "Point", "coordinates": [121.490091, 31.292704]}, "properties": {"_id": "136039165", "title": "畜植公司"}}, {"type": "Feature", "geometry": {"type": "Point", "coordinates": [121.485538, 31.289331]}, "properties": {"_id": "136039085", "title": "新华一村"}}, {"type": "Feature", "geometry": {"type": "Point", "coordinates": [121.482805, 31.282186]}, "properties": {"_id": "136038941", "title": "屈家桥"}}, {"type": "Feature", "geometry": {"type": "Point", "coordinates": [121.479603, 31.273627]}, "properties": {"_id": "136038853", "title": "法学院"}}, {"type": "Feature", "geometry": {"type": "Point", "coordinates": [121.481626, 31.277714]}, "properties": {"_id": "136038681", "title": "爱国女校"}}, {"type": "Feature", "geometry": {"coordinates": [121.479375, 31.269936], "type": "Point"}, "properties": {"_id": "136038453", "title": "派克公司"}}, {"type": "Feature", "geometry": {"type": "Point", "coordinates": [121.479831, 31.265753]}, "properties": {"_id": "136038196", "title": "天通庵"}}, {"type": "Feature", "geometry": {"type": "Point", "coordinates": [121.478651, 31.259912]}, "properties": {"_id": "136038106", "title": "宝兴路"}}, {"type": "Feature", "geometry": {"type": "Point", "coordinates": [121.438631, 31.193972]}, "properties": {"_id": "136037727", "title": "徐家汇"}}, {"type": "Feature", "geometry": {"type": "Point", "coordinates": [121.443107, 31.200128]}, "properties": {"_id": "136037647", "title": "汶林路"}}, {"type": "Feature", "geometry": {"type": "Point", "coordinates": [121.449624, 31.202251]}, "properties": {"_id": "136037571", "title": "巨福路"}}, {"type": "Feature", "geometry": {"type": "Point", "coordinates": [121.455547, 31.204366]}, "properties": {"_id": "136037463", "title": "台拉斯脱路"}}, {"type": "Feature", "geometry": {"type": "Point", "coordinates": [121.457901, 31.209089]}, "properties": {"_id": "136037383", "title": "西爱威斯路"}}, {"type": "Feature", "geometry": {"type": "Point", "coordinates": [121.460623, 31.213499]}, "properties": {"_id": "136037303", "title": "辣斐德路亚尔培路"}}, {"type": "Feature", "geometry": {"type": "Point", "coordinates": [121.457644, 31.22022]}, "properties": {"_id": "136037223", "title": "亚尔培路蒲石路"}}, {"type": "Feature", "geometry": {"type": "Point", "coordinates": [121.467497, 31.205136]}, "properties": {"_id": "136037123", "title": "打浦桥"}}, {"type": "Feature", "geometry": {"type": "Point", "coordinates": [121.466202, 31.210419]}, "properties": {"_id": "136037043", "title": "爱麦虞限路"}}, {"type": "Feature", "geometry": {"type": "Point", "coordinates": [121.465033, 31.214789]}, "properties": {"_id": "136036963", "title": "金神父路"}}, {"type": "Feature", "geometry": {"type": "Point", "coordinates": [121.470746, 31.215677]}, "properties": {"_id": "136036870", "title": "法国公园"}}, {"type": "Feature", "geometry": {"type": "Point", "coordinates": [121.475965, 31.218674]}, "properties": {"_id": "136036778", "title": "西门路"}}, {"type": "Feature", "geometry": {"type": "Point", "coordinates": [121.475084, 31.224479]}, "properties": {"_id": "136036690", "title": "嵩山路"}}, {"type": "Feature", "geometry": {"type": "Point", "coordinates": [121.478467, 31.228635]}, "properties": {"_id": "136036610", "title": "八仙桥"}}, {"type": "Feature", "geometry": {"type": "Point", "coordinates": [121.491739, 31.233308]}, "properties": {"_id": "136036473", "title": "外洋泾桥"}}, {"type": "Feature", "geometry": {"type": "Point", "coordinates": [121.489907, 31.242375]}, "properties": {"_id": "136036269", "title": "外白渡桥"}}, {"type": "Feature", "geometry": {"type": "Point", "coordinates": [121.468304, 31.235479]}, "properties": {"_id": "136036181", "title": "梅白格路"}}, {"type": "Feature", "geometry": {"type": "Point", "coordinates": [121.461212, 31.232935]}, "properties": {"_id": "136036072", "title": "卡德路"}}, {"type": "Feature", "geometry": {"type": "Point", "coordinates": [121.442753, 31.224763]}, "properties": {"_id": "136035908", "title": "极司斐而路爱文义路口"}}, {"type": "Feature", "geometry": {"type": "Point", "coordinates": [121.506598, 31.261842]}, "properties": {"_id": "136035781", "title": "保定路"}}, {"type": "Feature", "geometry": {"type": "Point", "coordinates": [121.501015, 31.257441]}, "properties": {"_id": "136035696", "title": "茂海路"}}, {"type": "Feature", "geometry": {"type": "Point", "coordinates": [121.491719, 31.253448]}, "properties": {"_id": "136035577", "title": "鸭绿路桥"}}, {"type": "Feature", "geometry": {"type": "Point", "coordinates": [121.48474, 31.249814]}, "properties": {"_id": "136035477", "title": "北四川路"}}, {"type": "Feature", "geometry": {"coordinates": [121.536136, 31.270613], "type": "Point"}, "properties": {"_id": "136035179", "title": "引翔港临青路"}}, {"type": "Feature", "geometry": {"type": "Point", "coordinates": [121.527182, 31.266158]}, "properties": {"_id": "136034917", "title": "高郎桥"}}, {"type": "Feature", "geometry": {"type": "Point", "coordinates": [121.517837, 31.261665]}, "properties": {"_id": "136034784", "title": "韬朋路"}}, {"type": "Feature", "geometry": {"type": "Point", "coordinates": [121.495834, 31.249023]}, "properties": {"_id": "136034677", "title": "庄源大弄"}}, {"type": "Feature", "geometry": {"type": "Point", "coordinates": [121.490744, 31.245014]}, "properties": {"_id": "136034534", "title": "礼查饭店"}}, {"type": "Feature", "geometry": {"type": "Point", "coordinates": [121.473433, 31.237877]}, "properties": {"_id": "136034329", "title": "北泥城桥"}}, {"type": "Feature", "geometry": {"type": "Point", "coordinates": [121.465968, 31.23887]}, "properties": {"_id": "136034249", "title": "新闸桥"}}, {"type": "Feature", "geometry": {"type": "Point", "coordinates": [121.459003, 31.237687]}, "properties": {"_id": "136034169", "title": "池浜桥"}}, {"type": "Feature", "geometry": {"type": "Point", "coordinates": [121.451526, 31.235433]}, "properties": {"_id": "136034036", "title": "戈登路"}}, {"type": "Feature", "geometry": {"type": "Point", "coordinates": [121.441925, 31.231617]}, "properties": {"_id": "136033677", "title": "胶州路"}}, {"type": "Feature", "geometry": {"type": "Point", "coordinates": [121.434524, 31.23089]}, "properties": {"_id": "136033503", "title": "公共汽车公司"}}, {"type": "Feature", "geometry": {"type": "Point", "coordinates": [121.556235, 31.270983]}, "properties": {"_id": "136033136", "title": "电灯厂"}}, {"type": "Feature", "geometry": {"type": "Point", "coordinates": [121.544199, 31.261634]}, "properties": {"_id": "136032971", "title": "广信路"}}, {"type": "Feature", "geometry": {"type": "Point", "coordinates": [121.535633, 31.254285]}, "properties": {"_id": "136032846", "title": "杨树浦桥"}}, {"type": "Feature", "geometry": {"type": "Point", "coordinates": [121.523403, 31.25253]}, "properties": {"_id": "136032680", "title": "韬朋路"}}, {"type": "Feature", "geometry": {"type": "Point", "coordinates": [121.50898, 31.252306]}, "properties": {"_id": "136031980", "title": "提篮桥"}}, {"type": "Feature", "geometry": {"type": "Point", "coordinates": [121.496741, 31.247516]}, "properties": {"_id": "136031642", "title": "庄源大弄"}}, {"type": "Feature", "geometry": {"type": "Point", "coordinates": [121.478406, 31.228586]}, "properties": {"_id": "136031174", "title": "大世界"}}, {"type": "Feature", "geometry": {"type": "Point", "coordinates": [121.463169, 31.224061]}, "properties": {"_id": "136030460", "title": "同孚路"}}, {"type": "Feature", "geometry": {"type": "Point", "coordinates": [121.467506, 31.223978]}, "properties": {"_id": "136030379", "title": "成都路"}}, {"type": "Feature", "geometry": {"type": "Point", "coordinates": [121.473147, 31.226042]}, "properties": {"_id": "136030262", "title": "马霍路"}}, {"type": "Feature", "geometry": {"coordinates": [121.491731, 31.23337], "type": "Point"}, "properties": {"_id": "136029425", "title": "爱多亚路外滩"}}, {"type": "Feature", "geometry": {"type": "Point", "coordinates": [121.490268, 31.240775]}, "properties": {"_id": "136029148", "title": "大马路外滩"}}, {"type": "Feature", "geometry": {"type": "Point", "coordinates": [121.483616, 31.240353]}, "properties": {"_id": "136028995", "title": "河南路"}}, {"type": "Feature", "geometry": {"type": "Point", "coordinates": [121.434255, 31.210903]}, "properties": {"_id": "136028582", "title": "陈家宅"}}, {"type": "Feature", "geometry": {"type": "Point", "coordinates": [121.443799, 31.217132]}, "properties": {"_id": "136028498", "title": "地丰路"}}, {"type": "Feature", "geometry": {"type": "Point", "coordinates": [121.53133, 31.259982]}, "properties": {"_id": "136028382", "title": "兰路"}}, {"type": "Feature", "geometry": {"type": "Point", "coordinates": [121.521574, 31.255259]}, "properties": {"_id": "136028276", "title": "韬朋路"}}, {"type": "Feature", "geometry": {"type": "Point", "coordinates": [121.508065, 31.25396]}, "properties": {"_id": "136028098", "title": "提篮桥"}}, {"type": "Feature", "geometry": {"coordinates": [121.500631, 31.254385], "type": "Point"}, "properties": {"_id": "136027793", "title": "兆丰路"}}, {"type": "Feature", "geometry": {"type": "Point", "coordinates": [121.497045, 31.255015]}, "properties": {"_id": "136027574", "title": "周家嘴路"}}, {"type": "Feature", "geometry": {"type": "Point", "coordinates": [121.492471, 31.257479]}, "properties": {"_id": "136027435", "title": "欧嘉路桥"}}, {"type": "Feature", "geometry": {"type": "Point", "coordinates": [121.479353, 31.250067]}, "properties": {"_id": "135944514", "title": "北火车站"}}, {"type": "Feature", "geometry": {"type": "Point", "coordinates": [121.481567, 31.246771]}, "properties": {"_id": "135944414", "title": "蓬路小菜场"}}, {"type": "Feature", "geometry": {"coordinates": [121.48274, 31.242321], "type": "Point"}, "properties": {"_id": "135944260", "title": "天后宫桥"}}, {"type": "Feature", "geometry": {"type": "Point", "coordinates": [121.486643, 31.231063]}, "properties": {"_id": "135944113", "title": "三茅阁桥"}}, {"type": "Feature", "geometry": {"type": "Point", "coordinates": [121.346657, 31.185026]}, "properties": {"_id": "135943270", "title": "虹桥飞机场"}}, {"type": "Feature", "geometry": {"coordinates": [121.370179, 31.190276], "type": "Point"}, "properties": {"_id": "135943161", "title": "虹桥抛球总会"}}, {"type": "Feature", "geometry": {"type": "Point", "coordinates": [121.398886, 31.20055]}, "properties": {"_id": "135943005", "title": "薛家宅"}}, {"type": "Feature", "geometry": {"type": "Point", "coordinates": [121.421838, 31.195489]}, "properties": {"_id": "135942871", "title": "虹桥铁桥"}}, {"type": "Feature", "geometry": {"type": "Point", "coordinates": [121.436976, 31.198275]}, "properties": {"_id": "135942240", "title": "南洋大学"}}, {"type": "Feature", "geometry": {"type": "Point", "coordinates": [121.376396, 31.219782]}, "properties": {"_id": "135942050", "title": "北新泾"}}, {"type": "Feature", "geometry": {"type": "Point", "coordinates": [121.398318, 31.217975]}, "properties": {"_id": "135941941", "title": "周家桥"}}, {"type": "Feature", "geometry": {"coordinates": [121.410836, 31.217148], "type": "Point"}, "properties": {"_id": "135941771", "title": "极司斐而路及白利南路角子"}}, {"type": "Feature", "geometry": {"coordinates": [121.427502, 31.228381], "type": "Point"}, "properties": {"_id": "135941568", "title": "曹家渡"}}, {"type": "Feature", "geometry": {"type": "Point", "coordinates": [121.484073, 31.263721]}, "properties": {"_id": "135941079", "title": "北四川路狄思威路口"}}, {"type": "Feature", "geometry": {"type": "Point", "coordinates": [121.488001, 31.262639]}, "properties": {"_id": "135940985", "title": "东洋花园"}}, {"type": "Feature", "geometry": {"type": "Point", "coordinates": [121.487592, 31.255823]}, "properties": {"_id": "135940812", "title": "嘉兴路桥"}}, {"type": "Feature", "geometry": {"coordinates": [121.486673, 31.250938], "type": "Point"}, "properties": {"_id": "135940708", "title": "海宁路乍浦路口"}}, {"type": "Feature", "geometry": {"coordinates": [121.485082, 31.248228], "type": "Point"}, "properties": {"_id": "135940413", "title": "蓬路"}}, {"type": "Feature", "geometry": {"type": "Point", "coordinates": [121.485812, 31.243402]}, "properties": {"_id": "135940319", "title": "苏州路桥"}}, {"type": "Feature", "geometry": {"type": "Point", "coordinates": [121.487706, 31.238499]}, "properties": {"_id": "135940223", "title": "南京路"}}, {"type": "Feature", "geometry": {"type": "Point", "coordinates": [121.490068, 31.232577]}, "properties": {"_id": "135940143", "title": "二洋泾桥"}}, {"type": "Feature", "geometry": {"type": "Point", "coordinates": [121.481753, 31.265225]}, "properties": {"_id": "135940026", "title": "公园靶子场"}}, {"type": "Feature", "geometry": {"coordinates": [121.483472, 31.26471], "type": "Point"}, "properties": {"_id": "135939934", "title": "施高塔路"}}, {"type": "Feature", "geometry": {"type": "Point", "coordinates": [121.483635, 31.260708]}, "properties": {"_id": "135939808", "title": "东洋学堂"}}, {"type": "Feature", "geometry": {"type": "Point", "coordinates": [121.484382, 31.251836]}, "properties": {"_id": "135939690", "title": "靶子路"}}, {"type": "Feature", "geometry": {"coordinates": [121.48566, 31.245151], "type": "Point"}, "properties": {"_id": "135939513", "title": "天潼路"}}, {"type": "Feature", "geometry": {"type": "Point", "coordinates": [121.489966, 31.239023]}, "properties": {"_id": "135939388", "title": "大马路外滩"}}, {"type": "Feature", "geometry": {"coordinates": [121.484796, 31.237631], "type": "Point"}, "properties": {"_id": "135939266", "title": "抛球场"}}, {"type": "Feature", "geometry": {"type": "Point", "coordinates": [121.47446, 31.234721]}, "properties": {"_id": "135939127", "title": "新世界"}}, {"type": "Feature", "geometry": {"type": "Point", "coordinates": [121.470176, 31.23105]}, "properties": {"_id": "135939014", "title": "马霍路"}}, {"type": "Feature", "geometry": {"type": "Point", "coordinates": [121.461455, 31.230865]}, "properties": {"_id": "135938881", "title": "同孚路"}}, {"type": "Feature", "geometry": {"type": "Point", "coordinates": [121.455036, 31.22735]}, "properties": {"_id": "135938797", "title": "西摩路"}}, {"type": "Feature", "geometry": {"type": "Point", "coordinates": [121.453216, 31.22963]}, "properties": {"_id": "135938584", "title": "西摩路"}}, {"type": "Feature", "geometry": {"type": "Point", "coordinates": [121.444501, 31.22372]}, "properties": {"_id": "135938405", "title": "静安寺"}}, {"type": "Feature", "geometry": {"type": "Point", "coordinates": [121.431075, 31.219203]}, "properties": {"_id": "135938303", "title": "忆定盘路"}}, {"type": "Feature", "geometry": {"type": "Point", "coordinates": [121.420289, 31.21886]}, "properties": {"_id": "135937388", "title": "兆丰花园"}}]}